[{"id": "cyclers-brewing-montgomery", "name": "Cycler's Brewing", "brewery_type": "micro", "street": "17105 Osborn Rd", "address_2": null, "address_3": null, "city": "Montgomery", "state": "Texas", "county_province": null, "postal_code": "77356", "country": "United States", "longitude": null, "latitude": null, "phone": "7135692485", "website_url": "http://www.cyclersbrewing.com", "updated_at": "2021-10-23T02:24:55.243Z", "created_at": "2021-10-23T02:24:55.243Z"}, {"id": "local-group-brewing-company-llc-houston", "name": "Local Group Brewing Company, LLC.", "brewery_type": "planning", "street": null, "address_2": null, "address_3": null, "city": "Houston", "state": "Texas", "county_province": null, "postal_code": "77008-6844", "country": "United States", "longitude": null, "latitude": null, "phone": null, "website_url": null, "updated_at": "2021-10-23T02:24:55.243Z", "created_at": "2021-10-23T02:24:55.243Z"}, {"id": "11-below-brewing-company-houston", "name": "11 Below Brewing Company", "brewery_type": "micro", "street": "6820 Bourgeois Rd", "address_2": null, "address_3": null, "city": "Houston", "state": "Texas", "county_province": null, "postal_code": "77066-3107", "country": "United States", "longitude": "-95.5186591", "latitude": "29.9515464", "phone": "2814442337", "website_url": "http://www.11belowbrewing.com", "updated_at": "2021-10-23T02:24:55.243Z", "created_at": "2021-10-23T02:24:55.243Z"}, {"id": "28th-state-brewing-houston", "name": "28th State Brewing", "brewery_type": "planning", "street": null, "address_2": null, "address_3": null, "city": "Houston", "state": "Texas", "county_province": null, "postal_code": "77095-6933", "country": "United States", "longitude": null, "latitude": null, "phone": null, "website_url": null, "updated_at": "2021-10-23T02:24:55.243Z", "created_at": "2021-10-23T02:24:55.243Z"}, {"id": "3-nations-brewing-farmers-branch", "name": "3 Nations Brewing", "brewery_type": "micro", "street": "2405 Squire Pl Ste 200", "address_2": null, "address_3": null, "city": "Farmers Branch", "state": "Texas", "county_province": null, "postal_code": "75234-4714", "country": "United States", "longitude": "-96.89883128", "latitude": "32.93044336", "phone": "4696607184", "website_url": "http://www.threenationsbrewing.com", "updated_at": "2021-10-23T02:24:55.243Z", "created_at": "2021-10-23T02:24:55.243Z"}, {"id": "4th-tap-brewing-cooperative-austin", "name": "4th Tap Brewing Cooperative", "brewery_type": "micro", "street": "10615 Metric Blvd", "address_2": null, "address_3": null, "city": "Austin", "state": "Texas", "county_province": null, "postal_code": "78758-4520", "country": "United States", "longitude": "-97.7118913", "latitude": "30.3852024", "phone": "5129089817", "website_url": null, "updated_at": "2021-10-23T02:24:55.243Z", "created_at": "2021-10-23T02:24:55.243Z"}, {"id": "5-stones-artisan-brewery-new-braunfels", "name": "5 Stones Artisan Brewery", "brewery_type": "micro", "street": "11335 Farm To Market Road 1863", "address_2": null, "address_3": null, "city": "New Braunfels", "state": "Texas", "county_province": null, "postal_code": "78132", "country": "United States", "longitude": "-98.232345", "latitude": "29.711365", "phone": "2103808215", "website_url": null, "updated_at": "2021-10-23T02:24:55.243Z", "created_at": "2021-10-23T02:24:55.243Z"}, {"id": "512-brewing-co-austin", "name": "(512) Brewing Co", "brewery_type": "micro", "street": "407 Radam Ln Ste F200", "address_2": null, "address_3": null, "city": "Austin", "state": "Texas", "county_province": null, "postal_code": "78745-1197", "country": "United States", "longitude": null, "latitude": null, "phone": "5129211545", "website_url": "http://www.512brewing.com", "updated_at": "2021-10-23T02:24:55.243Z", "created_at": "2021-10-23T02:24:55.243Z"}, {"id": "5th-element-brewing-leander", "name": "5th Element Brewing", "brewery_type": "planning", "street": null, "address_2": null, "address_3": null, "city": "Leander", "state": "Texas", "county_province": null, "postal_code": "78641-4009", "country": "United States", "longitude": null, "latitude": null, "phone": "9156378199", "website_url": null, "updated_at": "2021-10-23T02:24:55.243Z", "created_at": "2021-10-23T02:24:55.243Z"}, {"id": "5x5-brewing-co-mission", "name": "5x5 Brewing Co.", "brewery_type": "planning", "street": null, "address_2": null, "address_3": null, "city": "Mission", "state": "Texas", "county_province": null, "postal_code": "78572-6215", "country": "United States", "longitude": null, "latitude": null, "phone": "9565291353", "website_url": "http://www.5x5brewing.com", "updated_at": "2021-10-23T02:24:55.243Z", "created_at": "2021-10-23T02:24:55.243Z"}, {"id": "8th-wonder-brewery-houston", "name": "8th Wonder Brewery", "brewery_type": "micro", "street": "2202 Dallas St", "address_2": null, "address_3": null, "city": "Houston", "state": "Texas", "county_province": null, "postal_code": "77003-3519", "country": "United States", "longitude": "-95.3559402", "latitude": "29.7487783", "phone": "7133970072", "website_url": "http://www.8thwonderbrew.com", "updated_at": "2021-10-23T02:24:55.243Z", "created_at": "2021-10-23T02:24:55.243Z"}, {"id": "903-brewers-sherman", "name": "903 Brewers", "brewery_type": "micro", "street": "1718 S Elm St", "address_2": null, "address_3": null, "city": "Sherman", "state": "Texas", "county_province": null, "postal_code": "75090-8725", "country": "United States", "longitude": "-96.60698055", "latitude": "33.61788732", "phone": "2142438090", "website_url": "http://www.903brewers.com", "updated_at": "2021-10-23T02:24:55.243Z", "created_at": "2021-10-23T02:24:55.243Z"}, {"id": "acopon-brewing-co-dripping-springs", "name": "Acopon Brewing Co", "brewery_type": "micro", "street": "211 W Mercer St", "address_2": null, "address_3": null, "city": "Dripping Springs", "state": "Texas", "county_province": null, "postal_code": "78620-5363", "country": "United States", "longitude": "-98.09006208", "latitude": "30.19269957", "phone": "5128294723", "website_url": "http://www.acoponbrewing.com", "updated_at": "2021-10-23T02:24:55.243Z", "created_at": "2021-10-23T02:24:55.243Z"}, {"id": "adelberts-brewery-llc-austin", "name": "Adelbert's Brewery LLC", "brewery_type": "micro", "street": "2314 Rutland Dr Ste 100", "address_2": null, "address_3": null, "city": "Austin", "state": "Texas", "county_province": null, "postal_code": "78758-5273", "country": "United States", "longitude": "-97.7201589", "latitude": "30.3826286", "phone": "5126621462", "website_url": "http://www.adelbertsbeer.com", "updated_at": "2021-10-23T02:24:55.243Z", "created_at": "2021-10-23T02:24:55.243Z"}, {"id": "alamo-beer-co-san-antonio", "name": "Alamo Beer Co", "brewery_type": "micro", "street": "415 Burnet St", "address_2": null, "address_3": null, "city": "San Antonio", "state": "Texas", "county_province": null, "postal_code": "78202-1909", "country": "United States", "longitude": "-98.4771638", "latitude": "29.42902321", "phone": "2108725589", "website_url": "http://www.alamobeer.com", "updated_at": "2021-10-23T02:24:55.243Z", "created_at": "2021-10-23T02:24:55.243Z"}, {"id": "alcazar-brewery-llc-rio-grande-city", "name": "Alcazar Brewery, LLC.", "brewery_type": "planning", "street": null, "address_2": null, "address_3": null, "city": "Rio Grande City", "state": "Texas", "county_province": null, "postal_code": "78582-4450", "country": "United States", "longitude": null, "latitude": null, "phone": null, "website_url": null, "updated_at": "2021-10-23T02:24:55.243Z", "created_at": "2021-10-23T02:24:55.243Z"}, {"id": "altmeyer-and-lewis-brewing-company-san-marcos", "name": "Altmeyer and Lewis Brewing Company", "brewery_type": "micro", "street": "15898 N Hwy 123", "address_2": null, "address_3": null, "city": "San Marcos", "state": "Texas", "county_province": null, "postal_code": "78666-2418", "country": "United States", "longitude": null, "latitude": null, "phone": "5126679537", "website_url": "http://www.altmeyerlewisbrewing.com", "updated_at": "2021-10-23T02:24:55.243Z", "created_at": "2021-10-23T02:24:55.243Z"}, {"id": "altstadt-brewery-fredericksburg", "name": "Altstadt Brewery", "brewery_type": "micro", "street": "6120 E US Highway 290", "address_2": null, "address_3": null, "city": "Fredericksburg", "state": "Texas", "county_province": null, "postal_code": "78624-2176", "country": "United States", "longitude": "-98.8467263", "latitude": "30.2468574", "phone": "8303042337", "website_url": "http://www.altstadtbeer.com", "updated_at": "2021-10-23T02:24:55.243Z", "created_at": "2021-10-23T02:24:55.243Z"}, {"id": "angelina-brewing-company-llc-lufkin", "name": "Angelina Brewing Company, LLC.", "brewery_type": "planning", "street": null, "address_2": null, "address_3": null, "city": "Lufkin", "state": "Texas", "county_province": null, "postal_code": "75904-7550", "country": "United States", "longitude": null, "latitude": null, "phone": "3168419327", "website_url": null, "updated_at": "2021-10-23T02:24:55.243Z", "created_at": "2021-10-23T02:24:55.243Z"}, {"id": "anheuser-busch-inc-a-houston-houston", "name": "Anheuser-Busch Inc \u00e2\u0080\u0093 Houston", "brewery_type": "large", "street": "775 Gellhorn Dr", "address_2": null, "address_3": null, "city": "Houston", "state": "Texas", "county_province": null, "postal_code": "77029-1496", "country": "United States", "longitude": "-95.27130674", "latitude": "29.771858", "phone": "7136752311", "website_url": null, "updated_at": "2021-10-23T02:24:55.243Z", "created_at": "2021-10-23T02:24:55.243Z"}]